<kml xmlns="http://www.opengis.net/kml/2.2"><Document><visibility>1</visibility><Style id="Schools1"><IconStyle><color>ffb376bf</color><scale>1.0</scale><Icon><href>http://maps.google.com/mapfiles/kml/pal2/icon10.png</href></Icon></IconStyle></Style><Placemark><name>688 W Hastings St</name><visibility>1</visibility><ExtendedData><SchemaData schemaUrl="s"><SimpleData name="address">688 W Hastings St</SimpleData><SimpleData name="school_category">Independent School</SimpleData><SimpleData name="school_name">Alexander Academy</SimpleData><SimpleData name="geo_local_area">Downtown</SimpleData></SchemaData></ExtendedData><Point><coordinates>-123.114010,49.285001</coordinates></Point></Placemark><Placemark><name>5025 Willow St</name><visibility>1</visibility><ExtendedData><SchemaData schemaUrl="s"><SimpleData name="address">5025 Willow St</SimpleData><SimpleData name="school_category">Public School</SimpleData><SimpleData name="school_name">BC Children's Adol. Psych. Unit</SimpleData><SimpleData name="geo_local_area">South Cambie</SimpleData></SchemaData></ExtendedData><Point><coordinates>-123.125791,49.239631</coordinates></Point></Placemark><Placemark><name>1001 Cotton Drive</name><visibility>1</visibility><ExtendedData><SchemaData schemaUrl="s"><SimpleData name="address">1001 Cotton Drive</SimpleData><SimpleData name="school_category">Public School</SimpleData><SimpleData name="school_name">Britannia Community Secondary</SimpleData><SimpleData name="geo_local_area">Grandview-Woodland</SimpleData></SchemaData></ExtendedData><Point><coordinates>-123.071923,49.275236</coordinates></Point></Placemark><Placemark><name>3340 E 54th Av</name><visibility>1</visibility><ExtendedData><SchemaData schemaUrl="s"><SimpleData name="address">3340 E 54th Av</SimpleData><SimpleData name="school_category">Public School</SimpleData><SimpleData name="school_name">Captain James Cook Elementary</SimpleData><SimpleData name="geo_local_area">Killarney</SimpleData></SchemaData></ExtendedData><Point><coordinates>-123.035829,49.219381</coordinates></Point></Placemark><Placemark><name>3340 E 54th Av</name><visibility>1</visibility><ExtendedData><SchemaData schemaUrl="s"><SimpleData name="address">3340 E 54th Av</SimpleData><SimpleData name="school_category">StrongStart BC</SimpleData><SimpleData name="school_name">Captain James Cook StrongStart Centre</SimpleData><SimpleData name="geo_local_area">Killarney</SimpleData></SchemaData></ExtendedData><Point><coordinates>-123.035829,49.219381</coordinates></Point></Placemark><Placemark><name>2684 E 2nd Av</name><visibility>1</visibility><ExtendedData><SchemaData schemaUrl="s"><SimpleData name="address">2684 E 2nd Av</SimpleData><SimpleData name="school_category">StrongStart BC</SimpleData><SimpleData name="school_name">Chief Maquinna StrongStart Centre</SimpleData><SimpleData name="geo_local_area">Hastings-Sunrise</SimpleData></SchemaData></ExtendedData><Point><coordinates>-123.050590,49.267886</coordinates></Point></Placemark><Placemark><name>3575 Kaslo St</name><visibility>1</visibility><ExtendedData><SchemaData schemaUrl="s"><SimpleData name="address">3575 Kaslo St</SimpleData><SimpleData name="school_category">Independent School</SimpleData><SimpleData name="school_name">Children's Hearing and Speech Centre BC</SimpleData><SimpleData name="geo_local_area">Renfrew-Collingwood</SimpleData></SchemaData></ExtendedData><Point><coordinates>-123.048349,49.252358</coordinates></Point></Placemark><Placemark><name>3417 Euclid Av</name><visibility>1</visibility><ExtendedData><SchemaData schemaUrl="s"><SimpleData name="address">3417 Euclid Av</SimpleData><SimpleData name="school_category">Public School</SimpleData><SimpleData name="school_name">Collingwood Neighbourhood School</SimpleData><SimpleData name="geo_local_area">Renfrew-Collingwood</SimpleData></SchemaData></ExtendedData><Point><coordinates>-123.032313,49.236349</coordinates></Point></Placemark><Placemark><name>1755 E 55th Av</name><visibility>1</visibility><ExtendedData><SchemaData schemaUrl="s"><SimpleData name="address">1755 E 55th Av</SimpleData><SimpleData name="school_category">Public School</SimpleData><SimpleData name="school_name">David Thompson Secondary</SimpleData><SimpleData name="geo_local_area">Victoria-Fraserview</SimpleData></SchemaData></ExtendedData><Point><coordinates>-123.070632,49.220439</coordinates></Point></Placemark><Placemark><name>555 Lillooet St</name><visibility>1</visibility><ExtendedData><SchemaData schemaUrl="s"><SimpleData name="address">555 Lillooet St</SimpleData><SimpleData name="school_category">Public School</SimpleData><SimpleData name="school_name">Dr A R Lord Elementary</SimpleData><SimpleData name="geo_local_area">Hastings-Sunrise</SimpleData></SchemaData></ExtendedData><Point><coordinates>-123.039517,49.279640</coordinates></Point></Placemark><Placemark><name>6350 Tisdall St</name><visibility>1</visibility><ExtendedData><SchemaData schemaUrl="s"><SimpleData name="address">6350 Tisdall St</SimpleData><SimpleData name="school_category">Public School</SimpleData><SimpleData name="school_name">Dr Annie B Jamieson Elementary</SimpleData><SimpleData name="geo_local_area">Oakridge</SimpleData></SchemaData></ExtendedData><Point><coordinates>-123.121004,49.226907</coordinates></Point></Placemark><Placemark><name>3050 Crown St</name><visibility>1</visibility><ExtendedData><SchemaData schemaUrl="s"><SimpleData name="address">3050 Crown St</SimpleData><SimpleData name="school_category">Public School</SimpleData><SimpleData name="school_name">Ecole Jules Quesnel Elementary</SimpleData><SimpleData name="geo_local_area">West Point Grey</SimpleData></SchemaData></ExtendedData><Point><coordinates>-123.192538,49.259568</coordinates></Point></Placemark><Placemark><name>150 Drake St</name><visibility>1</visibility><ExtendedData><SchemaData schemaUrl="s"><SimpleData name="address">150 Drake St</SimpleData><SimpleData name="school_category">Public School</SimpleData><SimpleData name="school_name">Elsie Roy Elementary</SimpleData><SimpleData name="geo_local_area">Downtown</SimpleData></SchemaData></ExtendedData><Point><coordinates>-123.122482,49.272238</coordinates></Point></Placemark><Placemark><name>4070 Oak St</name><visibility>1</visibility><ExtendedData><SchemaData schemaUrl="s"><SimpleData name="address">4070 Oak St</SimpleData><SimpleData name="school_category">Public School</SimpleData><SimpleData name="school_name">Emily Carr Elementary</SimpleData><SimpleData name="geo_local_area">South Cambie</SimpleData></SchemaData></ExtendedData><Point><coordinates>-123.126096,49.250042</coordinates></Point></Placemark><Placemark><name>4196 W 4th Av</name><visibility>1</visibility><ExtendedData><SchemaData schemaUrl="s"><SimpleData name="address">4196 W 4th Av</SimpleData><SimpleData name="school_category">Independent School</SimpleData><SimpleData name="school_name">Family Montessori School</SimpleData><SimpleData name="geo_local_area">West Point Grey</SimpleData></SchemaData></ExtendedData><Point><coordinates>-123.198246,49.267668</coordinates></Point></Placemark><Placemark><name>2294 W 10th Av</name><visibility>1</visibility><ExtendedData><SchemaData schemaUrl="s"><SimpleData name="address">2294 W 10th Av</SimpleData><SimpleData name="school_category">Independent School</SimpleData><SimpleData name="school_name">Fraser Academy</SimpleData><SimpleData name="geo_local_area">Kitsilano</SimpleData></SchemaData></ExtendedData><Point><coordinates>-123.157276,49.262661</coordinates></Point></Placemark><Placemark><name>2330 E 37th Av</name><visibility>1</visibility><ExtendedData><SchemaData schemaUrl="s"><SimpleData name="address">2330 E 37th Av</SimpleData><SimpleData name="school_category">Public School</SimpleData><SimpleData name="school_name">G T Cunningham Elementary</SimpleData><SimpleData name="geo_local_area">Renfrew-Collingwood</SimpleData></SchemaData></ExtendedData><Point><coordinates>-123.057456,49.236732</coordinates></Point></Placemark><Placemark><name>3633 Tanner St</name><visibility>1</visibility><ExtendedData><SchemaData schemaUrl="s"><SimpleData name="address">3633 Tanner St</SimpleData><SimpleData name="school_category">Public School</SimpleData><SimpleData name="school_name">Graham Bruce Community Elementary</SimpleData><SimpleData name="geo_local_area">Renfrew-Collingwood</SimpleData></SchemaData></ExtendedData><Point><coordinates>-123.025673,49.242069</coordinates></Point></Placemark><Placemark><name>1551 Cypress St</name><visibility>1</visibility><ExtendedData><SchemaData schemaUrl="s"><SimpleData name="address">1551 Cypress St</SimpleData><SimpleData name="school_category">Public School</SimpleData><SimpleData name="school_name">Henry Hudson Elementary</SimpleData><SimpleData name="geo_local_area">Kitsilano</SimpleData></SchemaData></ExtendedData><Point><coordinates>-123.149356,49.272246</coordinates></Point></Placemark><Placemark><name>451 E 53rd Av</name><visibility>1</visibility><ExtendedData><SchemaData schemaUrl="s"><SimpleData name="address">451 E 53rd Av</SimpleData><SimpleData name="school_category">Public School</SimpleData><SimpleData name="school_name">John Henderson Elementary</SimpleData><SimpleData name="geo_local_area">Sunset</SimpleData></SchemaData></ExtendedData><Point><coordinates>-123.095272,49.222570</coordinates></Point></Placemark><Placemark><name>4710 Slocan St</name><visibility>1</visibility><ExtendedData><SchemaData schemaUrl="s"><SimpleData name="address">4710 Slocan St</SimpleData><SimpleData name="school_category">Public School</SimpleData><SimpleData name="school_name">John Norquay Elementary</SimpleData><SimpleData name="geo_local_area">Renfrew-Collingwood</SimpleData></SchemaData></ExtendedData><Point><coordinates>-123.051641,49.241425</coordinates></Point></Placemark><Placemark><name>5718 Willow St</name><visibility>1</visibility><ExtendedData><SchemaData schemaUrl="s"><SimpleData name="address">5718 Willow St</SimpleData><SimpleData name="school_category">Independent School</SimpleData><SimpleData name="school_name">King David High School</SimpleData><SimpleData name="geo_local_area">Oakridge</SimpleData></SchemaData></ExtendedData><Point><coordinates>-123.122791,49.233448</coordinates></Point></Placemark><Placemark><name>1755 Barclay St</name><visibility>1</visibility><ExtendedData><SchemaData schemaUrl="s"><SimpleData name="address">1755 Barclay St</SimpleData><SimpleData name="school_category">Public School</SimpleData><SimpleData name="school_name">King George Secondary</SimpleData><SimpleData name="geo_local_area">West End</SimpleData></SchemaData></ExtendedData><Point><coordinates>-123.136445,49.289824</coordinates></Point></Placemark><Placemark><name>4195 Alexandra St</name><visibility>1</visibility><ExtendedData><SchemaData schemaUrl="s"><SimpleData name="address">4195 Alexandra St</SimpleData><SimpleData name="school_category">Independent School</SimpleData><SimpleData name="school_name">Little Flower Academy</SimpleData><SimpleData name="geo_local_area">Shaughnessy</SimpleData></SchemaData></ExtendedData><Point><coordinates>-123.142261,49.248431</coordinates></Point></Placemark><Placemark><name>3663 Penticton St</name><visibility>1</visibility><ExtendedData><SchemaData schemaUrl="s"><SimpleData name="address">3663 Penticton St</SimpleData><SimpleData name="school_category">Public School</SimpleData><SimpleData name="school_name">Lord Beaconsfield Elementary</SimpleData><SimpleData name="geo_local_area">Renfrew-Collingwood</SimpleData></SchemaData></ExtendedData><Point><coordinates>-123.052696,49.252138</coordinates></Point></Placemark><Placemark><name>3455 W King Edward Av</name><visibility>1</visibility><ExtendedData><SchemaData schemaUrl="s"><SimpleData name="address">3455 W King Edward Av</SimpleData><SimpleData name="school_category">Public School</SimpleData><SimpleData name="school_name">Lord Kitchener Elementary</SimpleData><SimpleData name="geo_local_area">Dunbar-Southlands</SimpleData></SchemaData></ExtendedData><Point><coordinates>-123.180246,49.250582</coordinates></Point></Placemark><Placemark><name>1150 Nelson St</name><visibility>1</visibility><ExtendedData><SchemaData schemaUrl="s"><SimpleData name="address">1150 Nelson St</SimpleData><SimpleData name="school_category">Public School</SimpleData><SimpleData name="school_name">Lord Roberts Annex</SimpleData><SimpleData name="geo_local_area">West End</SimpleData></SchemaData></ExtendedData><Point><coordinates>-123.129806,49.283092</coordinates></Point></Placemark><Placemark><name>4444 Dumfries St</name><visibility>1</visibility><ExtendedData><SchemaData schemaUrl="s"><SimpleData name="address">4444 Dumfries St</SimpleData><SimpleData name="school_category">Public School</SimpleData><SimpleData name="school_name">Lord Selkirk Annex</SimpleData><SimpleData name="geo_local_area">Kensington-Cedar Cottage</SimpleData></SchemaData></ExtendedData><Point><coordinates>-123.072460,49.245321</coordinates></Point></Placemark><Placemark><name>2678 W Broadway</name><visibility>1</visibility><ExtendedData><SchemaData schemaUrl="s"><SimpleData name="address">2678 W Broadway</SimpleData><SimpleData name="school_category">Independent School</SimpleData><SimpleData name="school_name">Madrona School</SimpleData><SimpleData name="geo_local_area">Kitsilano</SimpleData></SchemaData></ExtendedData><Point><coordinates>-123.166011,49.263528</coordinates></Point></Placemark><Placemark><name>2300 Guelph St</name><visibility>1</visibility><ExtendedData><SchemaData schemaUrl="s"><SimpleData name="address">2300 Guelph St</SimpleData><SimpleData name="school_category">StrongStart BC</SimpleData><SimpleData name="school_name">Mount Pleasant StrongStart Centre</SimpleData><SimpleData name="geo_local_area">Mount Pleasant</SimpleData></SchemaData></ExtendedData><Point><coordinates>-123.094000,49.263966</coordinates></Point></Placemark><Placemark><name>2550 Camosun St</name><visibility>1</visibility><ExtendedData><SchemaData schemaUrl="s"><SimpleData name="address">2550 Camosun St</SimpleData><SimpleData name="school_category">Independent School</SimpleData><SimpleData name="school_name">Our Lady of Perpetual Help</SimpleData><SimpleData name="geo_local_area">West Point Grey</SimpleData></SchemaData></ExtendedData><Point><coordinates>-123.196179,49.264135</coordinates></Point></Placemark><Placemark><name>1819 Larch St</name><visibility>1</visibility><ExtendedData><SchemaData schemaUrl="s"><SimpleData name="address">1819 Larch St</SimpleData><SimpleData name="school_category">Independent School</SimpleData><SimpleData name="school_name">Pacific Rim Montessori Academy</SimpleData><SimpleData name="geo_local_area">Kitsilano</SimpleData></SchemaData></ExtendedData><Point><coordinates>-123.162444,49.269786</coordinates></Point></Placemark><Placemark><name>1580 W Broadway</name><visibility>1</visibility><ExtendedData><SchemaData schemaUrl="s"><SimpleData name="address">1580 W Broadway</SimpleData><SimpleData name="school_category">Public School</SimpleData><SimpleData name="school_name">Peak House</SimpleData><SimpleData name="geo_local_area">Fairview</SimpleData></SchemaData></ExtendedData><Point><coordinates>-123.140261,49.263300</coordinates></Point></Placemark><Placemark><name>4102 W 16th Av</name><visibility>1</visibility><ExtendedData><SchemaData schemaUrl="s"><SimpleData name="address">4102 W 16th Av</SimpleData><SimpleData name="school_category">Public School</SimpleData><SimpleData name="school_name">Queen Elizabeth Elementary</SimpleData><SimpleData name="geo_local_area">Dunbar-Southlands</SimpleData></SchemaData></ExtendedData><Point><coordinates>-123.201128,49.257792</coordinates></Point></Placemark><Placemark><name>1850 E 3rd Av</name><visibility>1</visibility><ExtendedData><SchemaData schemaUrl="s"><SimpleData name="address">1850 E 3rd Av</SimpleData><SimpleData name="school_category">Public School</SimpleData><SimpleData name="school_name">Queen Victoria Annex</SimpleData><SimpleData name="geo_local_area">Grandview-Woodland</SimpleData></SchemaData></ExtendedData><Point><coordinates>-123.066349,49.267188</coordinates></Point></Placemark><Placemark><name>3315 E 22nd Av</name><visibility>1</visibility><ExtendedData><SchemaData schemaUrl="s"><SimpleData name="address">3315 E 22nd Av</SimpleData><SimpleData name="school_category">Public School</SimpleData><SimpleData name="school_name">Renfrew Community Elementary</SimpleData><SimpleData name="geo_local_area">Renfrew-Collingwood</SimpleData></SchemaData></ExtendedData><Point><coordinates>-123.032058,49.251458</coordinates></Point></Placemark><Placemark><name>4250 Marguerite St</name><visibility>1</visibility><ExtendedData><SchemaData schemaUrl="s"><SimpleData name="address">4250 Marguerite St</SimpleData><SimpleData name="school_category">Public School</SimpleData><SimpleData name="school_name">Shaughnessy Elementary</SimpleData><SimpleData name="geo_local_area">Shaughnessy</SimpleData></SchemaData></ExtendedData><Point><coordinates>-123.143810,49.248676</coordinates></Point></Placemark><Placemark><name>960 E 39th Av</name><visibility>1</visibility><ExtendedData><SchemaData schemaUrl="s"><SimpleData name="address">960 E 39th Av</SimpleData><SimpleData name="school_category">Public School</SimpleData><SimpleData name="school_name">Sir Alexander Mackenzie Elementary</SimpleData><SimpleData name="geo_local_area">Kensington-Cedar Cottage</SimpleData></SchemaData></ExtendedData><Point><coordinates>-123.086714,49.234536</coordinates></Point></Placemark><Placemark><name>419 E 24th Av</name><visibility>1</visibility><ExtendedData><SchemaData schemaUrl="s"><SimpleData name="address">419 E 24th Av</SimpleData><SimpleData name="school_category">Public School</SimpleData><SimpleData name="school_name">Sir Charles Tupper Secondary</SimpleData><SimpleData name="geo_local_area">Riley Park</SimpleData></SchemaData></ExtendedData><Point><coordinates>-123.094809,49.249754</coordinates></Point></Placemark><Placemark><name>3250 Kingsway</name><visibility>1</visibility><ExtendedData><SchemaData schemaUrl="s"><SimpleData name="address">3250 Kingsway</SimpleData><SimpleData name="school_category">Public School</SimpleData><SimpleData name="school_name">Sir Guy Carleton Community Elementary</SimpleData><SimpleData name="geo_local_area">Renfrew-Collingwood</SimpleData></SchemaData></ExtendedData><Point><coordinates>-123.037608,49.234348</coordinates></Point></Placemark><Placemark><name>1300 E 29th Av</name><visibility>1</visibility><ExtendedData><SchemaData schemaUrl="s"><SimpleData name="address">1300 E 29th Av</SimpleData><SimpleData name="school_category">Public School</SimpleData><SimpleData name="school_name">Sir Richard McBride Elementary</SimpleData><SimpleData name="geo_local_area">Kensington-Cedar Cottage</SimpleData></SchemaData></ExtendedData><Point><coordinates>-123.078176,49.244157</coordinates></Point></Placemark><Placemark><name>1950 E Hastings St</name><visibility>1</visibility><ExtendedData><SchemaData schemaUrl="s"><SimpleData name="address">1950 E Hastings St</SimpleData><SimpleData name="school_category">Public School</SimpleData><SimpleData name="school_name">Sir William Macdonald Community</SimpleData><SimpleData name="geo_local_area">Grandview-Woodland</SimpleData></SchemaData></ExtendedData><Point><coordinates>-123.064679,49.280724</coordinates></Point></Placemark><Placemark><name>7055 Heather St</name><visibility>1</visibility><ExtendedData><SchemaData schemaUrl="s"><SimpleData name="address">7055 Heather St</SimpleData><SimpleData name="school_category">Public School</SimpleData><SimpleData name="school_name">Sir Winston Churchill Secondary</SimpleData><SimpleData name="geo_local_area">Oakridge</SimpleData></SchemaData></ExtendedData><Point><coordinates>-123.125615,49.221060</coordinates></Point></Placemark><Placemark><name>5855 Ontario St</name><visibility>1</visibility><ExtendedData><SchemaData schemaUrl="s"><SimpleData name="address">5855 Ontario St</SimpleData><SimpleData name="school_category">Public School</SimpleData><SimpleData name="school_name">Sir Wm Van Horne Elementary</SimpleData><SimpleData name="geo_local_area">Oakridge</SimpleData></SchemaData></ExtendedData><Point><coordinates>-123.106569,49.231566</coordinates></Point></Placemark><Placemark><name>1370 W 73rd Av</name><visibility>1</visibility><ExtendedData><SchemaData schemaUrl="s"><SimpleData name="address">1370 W 73rd Av</SimpleData><SimpleData name="school_category">Independent School</SimpleData><SimpleData name="school_name">St Anthony of Padua</SimpleData><SimpleData name="geo_local_area">Marpole</SimpleData></SchemaData></ExtendedData><Point><coordinates>-123.137008,49.204465</coordinates></Point></Placemark><Placemark><name>2215 W 10th Av</name><visibility>1</visibility><ExtendedData><SchemaData schemaUrl="s"><SimpleData name="address">2215 W 10th Av</SimpleData><SimpleData name="school_category">Independent School</SimpleData><SimpleData name="school_name">St John's School</SimpleData><SimpleData name="geo_local_area">Kitsilano</SimpleData></SchemaData></ExtendedData><Point><coordinates>-123.156179,49.263178</coordinates></Point></Placemark><Placemark><name>5239 Joyce St</name><visibility>1</visibility><ExtendedData><SchemaData schemaUrl="s"><SimpleData name="address">5239 Joyce St</SimpleData><SimpleData name="school_category">Independent School</SimpleData><SimpleData name="school_name">St Mary's</SimpleData><SimpleData name="geo_local_area">Renfrew-Collingwood</SimpleData></SchemaData></ExtendedData><Point><coordinates>-123.033706,49.237502</coordinates></Point></Placemark><Placemark><name>115 E 11th Av</name><visibility>1</visibility><ExtendedData><SchemaData schemaUrl="s"><SimpleData name="address">115 E 11th Av</SimpleData><SimpleData name="school_category">Independent School</SimpleData><SimpleData name="school_name">St Patrick Regional Secondary</SimpleData><SimpleData name="geo_local_area">Mount Pleasant</SimpleData></SchemaData></ExtendedData><Point><coordinates>-123.102604,49.261405</coordinates></Point></Placemark><Placemark><name>2850 Quebec St</name><visibility>1</visibility><ExtendedData><SchemaData schemaUrl="s"><SimpleData name="address">2850 Quebec St</SimpleData><SimpleData name="school_category">Independent School</SimpleData><SimpleData name="school_name">St Patrick's Elementary</SimpleData><SimpleData name="geo_local_area">Mount Pleasant</SimpleData></SchemaData></ExtendedData><Point><coordinates>-123.102437,49.259762</coordinates></Point></Placemark><Placemark><name>3155 E 27th Av</name><visibility>1</visibility><ExtendedData><SchemaData schemaUrl="s"><SimpleData name="address">3155 E 27th Av</SimpleData><SimpleData name="school_category">Public School</SimpleData><SimpleData name="school_name">Sunny Hill Hospital Program</SimpleData><SimpleData name="geo_local_area">Renfrew-Collingwood</SimpleData></SchemaData></ExtendedData><Point><coordinates>-123.037174,49.246512</coordinates></Point></Placemark><Placemark><name>2325 Cassiar St</name><visibility>1</visibility><ExtendedData><SchemaData schemaUrl="s"><SimpleData name="address">2325 Cassiar St</SimpleData><SimpleData name="school_category">Public School</SimpleData><SimpleData name="school_name">Thunderbird Elementary</SimpleData><SimpleData name="geo_local_area">Hastings-Sunrise</SimpleData></SchemaData></ExtendedData><Point><coordinates>-123.031871,49.263649</coordinates></Point></Placemark><Placemark><name>3525 Dumphries St</name><visibility>1</visibility><ExtendedData><SchemaData schemaUrl="s"><SimpleData name="address">3525 Dumphries St</SimpleData><SimpleData name="school_category">Public School</SimpleData><SimpleData name="school_name">Tyee Elementary</SimpleData><SimpleData name="geo_local_area">Kensington-Cedar Cottage</SimpleData></SchemaData></ExtendedData><Point><coordinates>-123.073822,49.253569</coordinates></Point></Placemark><Placemark><name>3496 Mons Drive</name><visibility>1</visibility><ExtendedData><SchemaData schemaUrl="s"><SimpleData name="address">3496 Mons Drive</SimpleData><SimpleData name="school_category">Independent School</SimpleData><SimpleData name="school_name">Vancouver Christian</SimpleData><SimpleData name="geo_local_area">Renfrew-Collingwood</SimpleData></SchemaData></ExtendedData><Point><coordinates>-123.028567,49.254712</coordinates></Point></Placemark><Placemark><name>5400 Cartier St</name><visibility>1</visibility><ExtendedData><SchemaData schemaUrl="s"><SimpleData name="address">5400 Cartier St</SimpleData><SimpleData name="school_category">Independent School</SimpleData><SimpleData name="school_name">Vancouver College</SimpleData><SimpleData name="geo_local_area">Shaughnessy</SimpleData></SchemaData></ExtendedData><Point><coordinates>-123.136171,49.234959</coordinates></Point></Placemark><Placemark><name>1545 W 62nd Av</name><visibility>1</visibility><ExtendedData><SchemaData schemaUrl="s"><SimpleData name="address">1545 W 62nd Av</SimpleData><SimpleData name="school_category">Independent School</SimpleData><SimpleData name="school_name">Vancouver Hebrew Academy</SimpleData><SimpleData name="geo_local_area">Marpole</SimpleData></SchemaData></ExtendedData><Point><coordinates>-123.141369,49.215472</coordinates></Point></Placemark><Placemark><name>8650 Barnard St</name><visibility>1</visibility><ExtendedData><SchemaData schemaUrl="s"><SimpleData name="address">8650 Barnard St</SimpleData><SimpleData name="school_category">Independent School</SimpleData><SimpleData name="school_name">Vancouver Montessori School</SimpleData><SimpleData name="geo_local_area">Marpole</SimpleData></SchemaData></ExtendedData><Point><coordinates>-123.144634,49.207790</coordinates></Point></Placemark><Placemark><name>1000 E 59th Av</name><visibility>1</visibility><ExtendedData><SchemaData schemaUrl="s"><SimpleData name="address">1000 E 59th Av</SimpleData><SimpleData name="school_category">Public School</SimpleData><SimpleData name="school_name">Walter Moberly Elementary</SimpleData><SimpleData name="geo_local_area">Sunset</SimpleData></SchemaData></ExtendedData><Point><coordinates>-123.084345,49.216109</coordinates></Point></Placemark><Placemark><name>3075 Slocan St</name><visibility>1</visibility><ExtendedData><SchemaData schemaUrl="s"><SimpleData name="address">3075 Slocan St</SimpleData><SimpleData name="school_category">Independent School</SimpleData><SimpleData name="school_name">Westside Montessori Academy</SimpleData><SimpleData name="geo_local_area">Renfrew-Collingwood</SimpleData></SchemaData></ExtendedData><Point><coordinates>-123.050392,49.256938</coordinates></Point></Placemark><Placemark><name>4176 Alexandra St</name><visibility>1</visibility><ExtendedData><SchemaData schemaUrl="s"><SimpleData name="address">4176 Alexandra St</SimpleData><SimpleData name="school_category">Independent School</SimpleData><SimpleData name="school_name">York House School</SimpleData><SimpleData name="geo_local_area">Shaughnessy</SimpleData></SchemaData></ExtendedData><Point><coordinates>-123.140340,49.248848</coordinates></Point></Placemark><Placemark><name>5025 Willow St</name><visibility>1</visibility><ExtendedData><SchemaData schemaUrl="s"><SimpleData name="address">5025 Willow St</SimpleData><SimpleData name="school_category">Public School</SimpleData><SimpleData name="school_name">BC Childrens Hosp School Program</SimpleData><SimpleData name="geo_local_area">South Cambie</SimpleData></SchemaData></ExtendedData><Point><coordinates>-123.125791,49.239631</coordinates></Point></Placemark><Placemark><name>2251 Collingwood St</name><visibility>1</visibility><ExtendedData><SchemaData schemaUrl="s"><SimpleData name="address">2251 Collingwood St</SimpleData><SimpleData name="school_category">Public School</SimpleData><SimpleData name="school_name">Bayview Community Elementary</SimpleData><SimpleData name="geo_local_area">Kitsilano</SimpleData></SchemaData></ExtendedData><Point><coordinates>-123.182334,49.266487</coordinates></Point></Placemark><Placemark><name>3400 Balaclava St</name><visibility>1</visibility><ExtendedData><SchemaData schemaUrl="s"><SimpleData name="address">3400 Balaclava St</SimpleData><SimpleData name="school_category">Public School</SimpleData><SimpleData name="school_name">Carnarvon Community Elementary</SimpleData><SimpleData name="geo_local_area">Arbutus-Ridge</SimpleData></SchemaData></ExtendedData><Point><coordinates>-123.173557,49.256587</coordinates></Point></Placemark><Placemark><name>6955 Frontenac St</name><visibility>1</visibility><ExtendedData><SchemaData schemaUrl="s"><SimpleData name="address">6955 Frontenac St</SimpleData><SimpleData name="school_category">Public School</SimpleData><SimpleData name="school_name">Champlain Heights Community Elementary</SimpleData><SimpleData name="geo_local_area">Killarney</SimpleData></SchemaData></ExtendedData><Point><coordinates>-123.027748,49.220640</coordinates></Point></Placemark><Placemark><name>1010 E 17th Av</name><visibility>1</visibility><ExtendedData><SchemaData schemaUrl="s"><SimpleData name="address">1010 E 17th Av</SimpleData><SimpleData name="school_category">Public School</SimpleData><SimpleData name="school_name">Charles Dickens Elementary</SimpleData><SimpleData name="geo_local_area">Kensington-Cedar Cottage</SimpleData></SchemaData></ExtendedData><Point><coordinates>-123.082391,49.254855</coordinates></Point></Placemark><Placemark><name>3417 Euclid Av</name><visibility>1</visibility><ExtendedData><SchemaData schemaUrl="s"><SimpleData name="address">3417 Euclid Av</SimpleData><SimpleData name="school_category">StrongStart BC</SimpleData><SimpleData name="school_name">Collingwood StrongStart Centre</SimpleData><SimpleData name="geo_local_area">Renfrew-Collingwood</SimpleData></SchemaData></ExtendedData><Point><coordinates>-123.032313,49.236349</coordinates></Point></Placemark><Placemark><name>438 Terminal Av</name><visibility>1</visibility><ExtendedData><SchemaData schemaUrl="s"><SimpleData name="address">438 Terminal Av</SimpleData><SimpleData name="school_category">Independent School</SimpleData><SimpleData name="school_name">Columbia College</SimpleData><SimpleData name="geo_local_area">Strathcona</SimpleData></SchemaData></ExtendedData><Point><coordinates>-123.095078,49.271560</coordinates></Point></Placemark><Placemark><name>5025 Willow St</name><visibility>1</visibility><ExtendedData><SchemaData schemaUrl="s"><SimpleData name="address">5025 Willow St</SimpleData><SimpleData name="school_category">Public School</SimpleData><SimpleData name="school_name">Eric Hamber Secondary</SimpleData><SimpleData name="geo_local_area">South Cambie</SimpleData></SchemaData></ExtendedData><Point><coordinates>-123.125791,49.239631</coordinates></Point></Placemark><Placemark><name>2740 Guelph St</name><visibility>1</visibility><ExtendedData><SchemaData schemaUrl="s"><SimpleData name="address">2740 Guelph St</SimpleData><SimpleData name="school_category">StrongStart BC</SimpleData><SimpleData name="school_name">Florence Nightingale StrongStart Centre</SimpleData><SimpleData name="geo_local_area">Mount Pleasant</SimpleData></SchemaData></ExtendedData><Point><coordinates>-123.093718,49.260059</coordinates></Point></Placemark><Placemark><name>2896 W 6th Av</name><visibility>1</visibility><ExtendedData><SchemaData schemaUrl="s"><SimpleData name="address">2896 W 6th Av</SimpleData><SimpleData name="school_category">Public School</SimpleData><SimpleData name="school_name">General Gordon Elementary</SimpleData><SimpleData name="geo_local_area">Kitsilano</SimpleData></SchemaData></ExtendedData><Point><coordinates>-123.170674,49.265980</coordinates></Point></Placemark><Placemark><name>3745 W 28th Av</name><visibility>1</visibility><ExtendedData><SchemaData schemaUrl="s"><SimpleData name="address">3745 W 28th Av</SimpleData><SimpleData name="school_category">Independent School</SimpleData><SimpleData name="school_name">Immaculate Conception School</SimpleData><SimpleData name="geo_local_area">Dunbar-Southlands</SimpleData></SchemaData></ExtendedData><Point><coordinates>-123.187708,49.247591</coordinates></Point></Placemark><Placemark><name>801 E 54th Av</name><visibility>1</visibility><ExtendedData><SchemaData schemaUrl="s"><SimpleData name="address">801 E 54th Av</SimpleData><SimpleData name="school_category">StrongStart BC</SimpleData><SimpleData name="school_name">John Henderson StrongStart Centre</SimpleData><SimpleData name="geo_local_area">Sunset</SimpleData></SchemaData></ExtendedData><Point><coordinates>-123.088043,49.221042</coordinates></Point></Placemark><Placemark><name>3250 W 43rd Av</name><visibility>1</visibility><ExtendedData><SchemaData schemaUrl="s"><SimpleData name="address">3250 W 43rd Av</SimpleData><SimpleData name="school_category">Public School</SimpleData><SimpleData name="school_name">Kerrisdale Annex</SimpleData><SimpleData name="geo_local_area">Kerrisdale</SimpleData></SchemaData></ExtendedData><Point><coordinates>-123.177405,49.232868</coordinates></Point></Placemark><Placemark><name>1166 W 14th Av</name><visibility>1</visibility><ExtendedData><SchemaData schemaUrl="s"><SimpleData name="address">1166 W 14th Av</SimpleData><SimpleData name="school_category">Public School</SimpleData><SimpleData name="school_name">L'Ecole Bilingue Elementary</SimpleData><SimpleData name="geo_local_area">Fairview</SimpleData></SchemaData></ExtendedData><Point><coordinates>-123.130386,49.258084</coordinates></Point></Placemark><Placemark><name>3939 W 16th Av</name><visibility>1</visibility><ExtendedData><SchemaData schemaUrl="s"><SimpleData name="address">3939 W 16th Av</SimpleData><SimpleData name="school_category">Public School</SimpleData><SimpleData name="school_name">Lord Byng Secondary</SimpleData><SimpleData name="geo_local_area">West Point Grey</SimpleData></SchemaData></ExtendedData><Point><coordinates>-123.192531,49.259567</coordinates></Point></Placemark><Placemark><name>2235 Kitchener St</name><visibility>1</visibility><ExtendedData><SchemaData schemaUrl="s"><SimpleData name="address">2235 Kitchener St</SimpleData><SimpleData name="school_category">Public School</SimpleData><SimpleData name="school_name">Lord Nelson Elementary</SimpleData><SimpleData name="geo_local_area">Grandview-Woodland</SimpleData></SchemaData></ExtendedData><Point><coordinates>-123.059712,49.272508</coordinates></Point></Placemark><Placemark><name>1750 E 22nd Av</name><visibility>1</visibility><ExtendedData><SchemaData schemaUrl="s"><SimpleData name="address">1750 E 22nd Av</SimpleData><SimpleData name="school_category">StrongStart BC</SimpleData><SimpleData name="school_name">Lord Selkirk StrongStart Centre</SimpleData><SimpleData name="geo_local_area">Kensington-Cedar Cottage</SimpleData></SchemaData></ExtendedData><Point><coordinates>-123.069007,49.249692</coordinates></Point></Placemark><Placemark><name>6360 Maple St</name><visibility>1</visibility><ExtendedData><SchemaData schemaUrl="s"><SimpleData name="address">6360 Maple St</SimpleData><SimpleData name="school_category">Public School</SimpleData><SimpleData name="school_name">Magee Secondary</SimpleData><SimpleData name="geo_local_area">Kerrisdale</SimpleData></SchemaData></ExtendedData><Point><coordinates>-123.151538,49.228554</coordinates></Point></Placemark><Placemark><name>3375 Nootka St</name><visibility>1</visibility><ExtendedData><SchemaData schemaUrl="s"><SimpleData name="address">3375 Nootka St</SimpleData><SimpleData name="school_category">Public School</SimpleData><SimpleData name="school_name">Nootka Community Elementary</SimpleData><SimpleData name="geo_local_area">Renfrew-Collingwood</SimpleData></SchemaData></ExtendedData><Point><coordinates>-123.042949,49.253593</coordinates></Point></Placemark><Placemark><name>575 Slocan St</name><visibility>1</visibility><ExtendedData><SchemaData schemaUrl="s"><SimpleData name="address">575 Slocan St</SimpleData><SimpleData name="school_category">Independent School</SimpleData><SimpleData name="school_name">Our Lady of Sorrows</SimpleData><SimpleData name="geo_local_area">Hastings-Sunrise</SimpleData></SchemaData></ExtendedData><Point><coordinates>-123.050154,49.279571</coordinates></Point></Placemark><Placemark><name>2409 E Pender St</name><visibility>1</visibility><ExtendedData><SchemaData schemaUrl="s"><SimpleData name="address">2409 E Pender St</SimpleData><SimpleData name="school_category">Independent School</SimpleData><SimpleData name="school_name">PALS Autism School</SimpleData><SimpleData name="geo_local_area">Hastings-Sunrise</SimpleData></SchemaData></ExtendedData><Point><coordinates>-123.055954,49.280515</coordinates></Point></Placemark><Placemark><name>4196 W 4th Av</name><visibility>1</visibility><ExtendedData><SchemaData schemaUrl="s"><SimpleData name="address">4196 W 4th Av</SimpleData><SimpleData name="school_category">Independent School</SimpleData><SimpleData name="school_name">Pacific Spirit School</SimpleData><SimpleData name="geo_local_area">West Point Grey</SimpleData></SchemaData></ExtendedData><Point><coordinates>-123.198246,49.267668</coordinates></Point></Placemark><Placemark><name>449 E 62nd Av</name><visibility>1</visibility><ExtendedData><SchemaData schemaUrl="s"><SimpleData name="address">449 E 62nd Av</SimpleData><SimpleData name="school_category">Public School</SimpleData><SimpleData name="school_name">Pierre Elliott Trudeau Elementary</SimpleData><SimpleData name="geo_local_area">Sunset</SimpleData></SchemaData></ExtendedData><Point><coordinates>-123.096959,49.214454</coordinates></Point></Placemark><Placemark><name>1300 E Broadway</name><visibility>1</visibility><ExtendedData><SchemaData schemaUrl="s"><SimpleData name="address">1300 E Broadway</SimpleData><SimpleData name="school_category">StrongStart BC</SimpleData><SimpleData name="school_name">Queen Alexandra StrongStart Centre</SimpleData><SimpleData name="geo_local_area">Kensington-Cedar Cottage</SimpleData></SchemaData></ExtendedData><Point><coordinates>-123.075921,49.261971</coordinates></Point></Placemark><Placemark><name>250S Skeena St</name><visibility>1</visibility><ExtendedData><SchemaData schemaUrl="s"><SimpleData name="address">250S Skeena St</SimpleData><SimpleData name="school_category">Public School</SimpleData><SimpleData name="school_name">Sir John Franklin Community</SimpleData><SimpleData name="geo_local_area">Hastings-Sunrise</SimpleData></SchemaData></ExtendedData><Point><coordinates>-123.027586,49.282496</coordinates></Point></Placemark><Placemark><name>590 W 65th Av</name><visibility>1</visibility><ExtendedData><SchemaData schemaUrl="s"><SimpleData name="address">590 W 65th Av</SimpleData><SimpleData name="school_category">Public School</SimpleData><SimpleData name="school_name">Sir Wilfrid Laurier Annex</SimpleData><SimpleData name="geo_local_area">Marpole</SimpleData></SchemaData></ExtendedData><Point><coordinates>-123.119445,49.210718</coordinates></Point></Placemark><Placemark><name>450 E 47th Av</name><visibility>1</visibility><ExtendedData><SchemaData schemaUrl="s"><SimpleData name="address">450 E 47th Av</SimpleData><SimpleData name="school_category">Independent School</SimpleData><SimpleData name="school_name">St Andrew's</SimpleData><SimpleData name="geo_local_area">Sunset</SimpleData></SchemaData></ExtendedData><Point><coordinates>-123.095856,49.227214</coordinates></Point></Placemark><Placemark><name>5400 Cartier St</name><visibility>1</visibility><ExtendedData><SchemaData schemaUrl="s"><SimpleData name="address">5400 Cartier St</SimpleData><SimpleData name="school_category">Independent School</SimpleData><SimpleData name="school_name">Vancouver College DL</SimpleData><SimpleData name="geo_local_area">Shaughnessy</SimpleData></SchemaData></ExtendedData><Point><coordinates>-123.136171,49.234959</coordinates></Point></Placemark><Placemark><name>2600 E Broadway</name><visibility>1</visibility><ExtendedData><SchemaData schemaUrl="s"><SimpleData name="address">2600 E Broadway</SimpleData><SimpleData name="school_category">Public School</SimpleData><SimpleData name="school_name">Vancouver Technical Secondary</SimpleData><SimpleData name="geo_local_area">Renfrew-Collingwood</SimpleData></SchemaData></ExtendedData><Point><coordinates>-123.051300,49.260755</coordinates></Point></Placemark><Placemark><name>6111 Elliott St</name><visibility>1</visibility><ExtendedData><SchemaData schemaUrl="s"><SimpleData name="address">6111 Elliott St</SimpleData><SimpleData name="school_category">Public School</SimpleData><SimpleData name="school_name">Waverley Elementary</SimpleData><SimpleData name="geo_local_area">Victoria-Fraserview</SimpleData></SchemaData></ExtendedData><Point><coordinates>-123.055786,49.227837</coordinates></Point></Placemark><Placemark><name>1130 Keefer St</name><visibility>1</visibility><ExtendedData><SchemaData schemaUrl="s"><SimpleData name="address">1130 Keefer St</SimpleData><SimpleData name="school_category">StrongStart BC</SimpleData><SimpleData name="school_name">Admiral Seymour StrongStart Centre</SimpleData><SimpleData name="geo_local_area">Strathcona</SimpleData></SchemaData></ExtendedData><Point><coordinates>-123.080314,49.278594</coordinates></Point></Placemark><Placemark><name>1690 Matthews Av</name><visibility>1</visibility><ExtendedData><SchemaData schemaUrl="s"><SimpleData name="address">1690 Matthews Av</SimpleData><SimpleData name="school_category">Public School</SimpleData><SimpleData name="school_name">Canuck Place School Program</SimpleData><SimpleData name="geo_local_area">Shaughnessy</SimpleData></SchemaData></ExtendedData><Point><coordinates>-123.143062,49.251670</coordinates></Point></Placemark><Placemark><name>2684 E 2nd Av</name><visibility>1</visibility><ExtendedData><SchemaData schemaUrl="s"><SimpleData name="address">2684 E 2nd Av</SimpleData><SimpleData name="school_category">Public School</SimpleData><SimpleData name="school_name">Chief Maquinna Elementary</SimpleData><SimpleData name="geo_local_area">Hastings-Sunrise</SimpleData></SchemaData></ExtendedData><Point><coordinates>-123.050590,49.267886</coordinates></Point></Placemark><Placemark><name>1580 W Broadway</name><visibility>1</visibility><ExtendedData><SchemaData schemaUrl="s"><SimpleData name="address">1580 W Broadway</SimpleData><SimpleData name="school_category">Public School</SimpleData><SimpleData name="school_name">Continuing Ed SD 39</SimpleData><SimpleData name="geo_local_area">Fairview</SimpleData></SchemaData></ExtendedData><Point><coordinates>-123.140261,49.263300</coordinates></Point></Placemark><Placemark><name>6344 Nanaimo St</name><visibility>1</visibility><ExtendedData><SchemaData schemaUrl="s"><SimpleData name="address">6344 Nanaimo St</SimpleData><SimpleData name="school_category">Independent School</SimpleData><SimpleData name="school_name">Corpus Christi School</SimpleData><SimpleData name="geo_local_area">Victoria-Fraserview</SimpleData></SchemaData></ExtendedData><Point><coordinates>-123.057584,49.226406</coordinates></Point></Placemark><Placemark><name>8370 Cartier St</name><visibility>1</visibility><ExtendedData><SchemaData schemaUrl="s"><SimpleData name="address">8370 Cartier St</SimpleData><SimpleData name="school_category">Public School</SimpleData><SimpleData name="school_name">David Lloyd George Elementary</SimpleData><SimpleData name="geo_local_area">Marpole</SimpleData></SchemaData></ExtendedData><Point><coordinates>-123.136349,49.209962</coordinates></Point></Placemark><Placemark><name>8370 Cartier St</name><visibility>1</visibility><ExtendedData><SchemaData schemaUrl="s"><SimpleData name="address">8370 Cartier St</SimpleData><SimpleData name="school_category">StrongStart BC</SimpleData><SimpleData name="school_name">David Lloyd George StrongStart Centre</SimpleData><SimpleData name="geo_local_area">Marpole</SimpleData></SchemaData></ExtendedData><Point><coordinates>-123.136349,49.209962</coordinates></Point></Placemark><Placemark><name>2421 Scarboro Av</name><visibility>1</visibility><ExtendedData><SchemaData schemaUrl="s"><SimpleData name="address">2421 Scarboro Av</SimpleData><SimpleData name="school_category">Public School</SimpleData><SimpleData name="school_name">David Oppenheimer Elementary</SimpleData><SimpleData name="geo_local_area">Victoria-Fraserview</SimpleData></SchemaData></ExtendedData><Point><coordinates>-123.058293,49.213318</coordinates></Point></Placemark><Placemark><name>7455 Maple St</name><visibility>1</visibility><ExtendedData><SchemaData schemaUrl="s"><SimpleData name="address">7455 Maple St</SimpleData><SimpleData name="school_category">Public School</SimpleData><SimpleData name="school_name">Dr R E McKechnie Elementary</SimpleData><SimpleData name="geo_local_area">Kerrisdale</SimpleData></SchemaData></ExtendedData><Point><coordinates>-123.154011,49.217707</coordinates></Point></Placemark><Placemark><name>900 School Green</name><visibility>1</visibility><ExtendedData><SchemaData schemaUrl="s"><SimpleData name="address">900 School Green</SimpleData><SimpleData name="school_category">Public School</SimpleData><SimpleData name="school_name">False Creek Elementary</SimpleData><SimpleData name="geo_local_area">Fairview</SimpleData></SchemaData></ExtendedData><Point><coordinates>-123.126859,49.267103</coordinates></Point></Placemark><Placemark><name>1025 Slocan St</name><visibility>1</visibility><ExtendedData><SchemaData schemaUrl="s"><SimpleData name="address">1025 Slocan St</SimpleData><SimpleData name="school_category">Public School</SimpleData><SimpleData name="school_name">Garibaldi Annex</SimpleData><SimpleData name="geo_local_area">Hastings-Sunrise</SimpleData></SchemaData></ExtendedData><Point><coordinates>-123.050269,49.275416</coordinates></Point></Placemark><Placemark><name>4105 Gladstone St</name><visibility>1</visibility><ExtendedData><SchemaData schemaUrl="s"><SimpleData name="address">4105 Gladstone St</SimpleData><SimpleData name="school_category">Public School</SimpleData><SimpleData name="school_name">Gladstone Secondary</SimpleData><SimpleData name="geo_local_area">Kensington-Cedar Cottage</SimpleData></SchemaData></ExtendedData><Point><coordinates>-123.061633,49.247612</coordinates></Point></Placemark><Placemark><name>7455 Ontario St</name><visibility>1</visibility><ExtendedData><SchemaData schemaUrl="s"><SimpleData name="address">7455 Ontario St</SimpleData><SimpleData name="school_category">Public School</SimpleData><SimpleData name="school_name">J.W. Sexsmith Community Elementary</SimpleData><SimpleData name="geo_local_area">Marpole</SimpleData></SchemaData></ExtendedData><Point><coordinates>-123.108794,49.217268</coordinates></Point></Placemark><Placemark><name>530 E 41st Av</name><visibility>1</visibility><ExtendedData><SchemaData schemaUrl="s"><SimpleData name="address">530 E 41st Av</SimpleData><SimpleData name="school_category">Public School</SimpleData><SimpleData name="school_name">John Oliver Secondary</SimpleData><SimpleData name="geo_local_area">Sunset</SimpleData></SchemaData></ExtendedData><Point><coordinates>-123.092798,49.231957</coordinates></Point></Placemark><Placemark><name>2550 W 10th Av</name><visibility>1</visibility><ExtendedData><SchemaData schemaUrl="s"><SimpleData name="address">2550 W 10th Av</SimpleData><SimpleData name="school_category">Public School</SimpleData><SimpleData name="school_name">Kitsilano Secondary</SimpleData><SimpleData name="geo_local_area">Kitsilano</SimpleData></SchemaData></ExtendedData><Point><coordinates>-123.163589,49.262655</coordinates></Point></Placemark><Placemark><name>2235 Kitchener St</name><visibility>1</visibility><ExtendedData><SchemaData schemaUrl="s"><SimpleData name="address">2235 Kitchener St</SimpleData><SimpleData name="school_category">StrongStart BC</SimpleData><SimpleData name="school_name">Lord Nelson StrongStart Centre</SimpleData><SimpleData name="geo_local_area">Grandview-Woodland</SimpleData></SchemaData></ExtendedData><Point><coordinates>-123.059712,49.272508</coordinates></Point></Placemark><Placemark><name>2880 Venables St</name><visibility>1</visibility><ExtendedData><SchemaData schemaUrl="s"><SimpleData name="address">2880 Venables St</SimpleData><SimpleData name="school_category">Independent School</SimpleData><SimpleData name="school_name">Notre Dame Regional Secondary</SimpleData><SimpleData name="geo_local_area">Hastings-Sunrise</SimpleData></SchemaData></ExtendedData><Point><coordinates>-123.045567,49.275803</coordinates></Point></Placemark><Placemark><name>5750 Oak St</name><visibility>1</visibility><ExtendedData><SchemaData schemaUrl="s"><SimpleData name="address">5750 Oak St</SimpleData><SimpleData name="school_category">Independent School</SimpleData><SimpleData name="school_name">Pacific Torah Institute International</SimpleData><SimpleData name="geo_local_area">Oakridge</SimpleData></SchemaData></ExtendedData><Point><coordinates>-123.127612,49.233422</coordinates></Point></Placemark><Placemark><name>3417 Euclid Av</name><visibility>1</visibility><ExtendedData><SchemaData schemaUrl="s"><SimpleData name="address">3417 Euclid Av</SimpleData><SimpleData name="school_category">Public School</SimpleData><SimpleData name="school_name">Prov. Early Intervention Resource Prg</SimpleData><SimpleData name="geo_local_area">Renfrew-Collingwood</SimpleData></SchemaData></ExtendedData><Point><coordinates>-123.032313,49.236349</coordinates></Point></Placemark><Placemark><name>4275 Crown St</name><visibility>1</visibility><ExtendedData><SchemaData schemaUrl="s"><SimpleData name="address">4275 Crown St</SimpleData><SimpleData name="school_category">Public School</SimpleData><SimpleData name="school_name">Queen Elizabeth Annex</SimpleData><SimpleData name="geo_local_area">Dunbar-Southlands</SimpleData></SchemaData></ExtendedData><Point><coordinates>-123.194691,49.248937</coordinates></Point></Placemark><Placemark><name>2000 Trimble St</name><visibility>1</visibility><ExtendedData><SchemaData schemaUrl="s"><SimpleData name="address">2000 Trimble St</SimpleData><SimpleData name="school_category">Public School</SimpleData><SimpleData name="school_name">Queen Mary Elementary</SimpleData><SimpleData name="geo_local_area">West Point Grey</SimpleData></SchemaData></ExtendedData><Point><coordinates>-123.204797,49.267856</coordinates></Point></Placemark><Placemark><name>1025 Slocan St</name><visibility>1</visibility><ExtendedData><SchemaData schemaUrl="s"><SimpleData name="address">1025 Slocan St</SimpleData><SimpleData name="school_category">Public School</SimpleData><SimpleData name="school_name">SD 39 DL Elementary</SimpleData><SimpleData name="geo_local_area">Hastings-Sunrise</SimpleData></SchemaData></ExtendedData><Point><coordinates>-123.050269,49.275416</coordinates></Point></Placemark><Placemark><name>2150 Brigadoon Av</name><visibility>1</visibility><ExtendedData><SchemaData schemaUrl="s"><SimpleData name="address">2150 Brigadoon Av</SimpleData><SimpleData name="school_category">Public School</SimpleData><SimpleData name="school_name">Sir James Douglas Elementary</SimpleData><SimpleData name="geo_local_area">Victoria-Fraserview</SimpleData></SchemaData></ExtendedData><Point><coordinates>-123.064653,49.216049</coordinates></Point></Placemark><Placemark><name>1430 Lillooet St</name><visibility>1</visibility><ExtendedData><SchemaData schemaUrl="s"><SimpleData name="address">1430 Lillooet St</SimpleData><SimpleData name="school_category">Public School</SimpleData><SimpleData name="school_name">Sir Matthew Begbie Elementary</SimpleData><SimpleData name="geo_local_area">Hastings-Sunrise</SimpleData></SchemaData></ExtendedData><Point><coordinates>-123.038010,49.271831</coordinates></Point></Placemark><Placemark><name>5970 Selkirk St</name><visibility>1</visibility><ExtendedData><SchemaData schemaUrl="s"><SimpleData name="address">5970 Selkirk St</SimpleData><SimpleData name="school_category">Public School</SimpleData><SimpleData name="school_name">Sir William Osler Elementary</SimpleData><SimpleData name="geo_local_area">Oakridge</SimpleData></SchemaData></ExtendedData><Point><coordinates>-123.132662,49.230762</coordinates></Point></Placemark><Placemark><name>5351 Camosun St</name><visibility>1</visibility><ExtendedData><SchemaData schemaUrl="s"><SimpleData name="address">5351 Camosun St</SimpleData><SimpleData name="school_category">Public School</SimpleData><SimpleData name="school_name">Southlands Elementary</SimpleData><SimpleData name="geo_local_area">Dunbar-Southlands</SimpleData></SchemaData></ExtendedData><Point><coordinates>-123.197815,49.238138</coordinates></Point></Placemark><Placemark><name>2145 W 8th Av</name><visibility>1</visibility><ExtendedData><SchemaData schemaUrl="s"><SimpleData name="address">2145 W 8th Av</SimpleData><SimpleData name="school_category">Independent School</SimpleData><SimpleData name="school_name">St Augustine's</SimpleData><SimpleData name="geo_local_area">Kitsilano</SimpleData></SchemaData></ExtendedData><Point><coordinates>-123.153552,49.265173</coordinates></Point></Placemark><Placemark><name>870 Victoria Drive</name><visibility>1</visibility><ExtendedData><SchemaData schemaUrl="s"><SimpleData name="address">870 Victoria Drive</SimpleData><SimpleData name="school_category">Independent School</SimpleData><SimpleData name="school_name">St Francis of Assisi</SimpleData><SimpleData name="geo_local_area">Grandview-Woodland</SimpleData></SchemaData></ExtendedData><Point><coordinates>-123.065049,49.276882</coordinates></Point></Placemark><Placemark><name>4175 W 29th Av</name><visibility>1</visibility><ExtendedData><SchemaData schemaUrl="s"><SimpleData name="address">4175 W 29th Av</SimpleData><SimpleData name="school_category">Independent School</SimpleData><SimpleData name="school_name">St George's School</SimpleData><SimpleData name="geo_local_area">Dunbar-Southlands</SimpleData></SchemaData></ExtendedData><Point><coordinates>-123.198465,49.247582</coordinates></Point></Placemark><Placemark><name>3261 Fleming St</name><visibility>1</visibility><ExtendedData><SchemaData schemaUrl="s"><SimpleData name="address">3261 Fleming St</SimpleData><SimpleData name="school_category">Independent School</SimpleData><SimpleData name="school_name">St Joseph's</SimpleData><SimpleData name="geo_local_area">Kensington-Cedar Cottage</SimpleData></SchemaData></ExtendedData><Point><coordinates>-123.071647,49.255914</coordinates></Point></Placemark><Placemark><name>2953 E 15th Av</name><visibility>1</visibility><ExtendedData><SchemaData schemaUrl="s"><SimpleData name="address">2953 E 15th Av</SimpleData><SimpleData name="school_category">Independent School</SimpleData><SimpleData name="school_name">St Jude's</SimpleData><SimpleData name="geo_local_area">Renfrew-Collingwood</SimpleData></SchemaData></ExtendedData><Point><coordinates>-123.042627,49.256546</coordinates></Point></Placemark><Placemark><name>727 Templeton Drive</name><visibility>1</visibility><ExtendedData><SchemaData schemaUrl="s"><SimpleData name="address">727 Templeton Drive</SimpleData><SimpleData name="school_category">Public School</SimpleData><SimpleData name="school_name">Templeton Secondary</SimpleData><SimpleData name="geo_local_area">Grandview-Woodland</SimpleData></SchemaData></ExtendedData><Point><coordinates>-123.060691,49.278439</coordinates></Point></Placemark><Placemark><name>5621 Killarney St</name><visibility>1</visibility><ExtendedData><SchemaData schemaUrl="s"><SimpleData name="address">5621 Killarney St</SimpleData><SimpleData name="school_category">Independent School</SimpleData><SimpleData name="school_name">Vancouver Formosa Academy</SimpleData><SimpleData name="geo_local_area">Renfrew-Collingwood</SimpleData></SchemaData></ExtendedData><Point><coordinates>-123.046367,49.233747</coordinates></Point></Placemark><Placemark><name>1000 E 59th Av</name><visibility>1</visibility><ExtendedData><SchemaData schemaUrl="s"><SimpleData name="address">1000 E 59th Av</SimpleData><SimpleData name="school_category">StrongStart BC</SimpleData><SimpleData name="school_name">Walter Moberly StrongStart Centre</SimpleData><SimpleData name="geo_local_area">Sunset</SimpleData></SchemaData></ExtendedData><Point><coordinates>-123.084345,49.216109</coordinates></Point></Placemark><Placemark><name>6111 Elliott St</name><visibility>1</visibility><ExtendedData><SchemaData schemaUrl="s"><SimpleData name="address">6111 Elliott St</SimpleData><SimpleData name="school_category">StrongStart BC</SimpleData><SimpleData name="school_name">Waverley StrongStart Centre</SimpleData><SimpleData name="geo_local_area">Victoria-Fraserview</SimpleData></SchemaData></ExtendedData><Point><coordinates>-123.055786,49.227837</coordinates></Point></Placemark><Placemark><name>4157 Oak St</name><visibility>1</visibility><ExtendedData><SchemaData schemaUrl="s"><SimpleData name="address">4157 Oak St</SimpleData><SimpleData name="school_category">Independent School</SimpleData><SimpleData name="school_name">Westside Montessori</SimpleData><SimpleData name="geo_local_area">Shaughnessy</SimpleData></SchemaData></ExtendedData><Point><coordinates>-123.128000,49.248574</coordinates></Point></Placemark><Placemark><name>3155 E 27th Av</name><visibility>1</visibility><ExtendedData><SchemaData schemaUrl="s"><SimpleData name="address">3155 E 27th Av</SimpleData><SimpleData name="school_category">Public School</SimpleData><SimpleData name="school_name">Windermere Community Secondary</SimpleData><SimpleData name="geo_local_area">Renfrew-Collingwood</SimpleData></SchemaData></ExtendedData><Point><coordinates>-123.037174,49.246512</coordinates></Point></Placemark><Placemark><name>3274 East Boulevard</name><visibility>1</visibility><ExtendedData><SchemaData schemaUrl="s"><SimpleData name="address">3274 East Boulevard</SimpleData><SimpleData name="school_category">Independent School</SimpleData><SimpleData name="school_name">York House Little School</SimpleData><SimpleData name="geo_local_area">Shaughnessy</SimpleData></SchemaData></ExtendedData><Point><coordinates>-123.152101,49.256710</coordinates></Point></Placemark><Placemark><name>1130 Keefer St</name><visibility>1</visibility><ExtendedData><SchemaData schemaUrl="s"><SimpleData name="address">1130 Keefer St</SimpleData><SimpleData name="school_category">Public School</SimpleData><SimpleData name="school_name">Admiral Seymour Elementary</SimpleData><SimpleData name="geo_local_area">Strathcona</SimpleData></SchemaData></ExtendedData><Point><coordinates>-123.080314,49.278594</coordinates></Point></Placemark><Placemark><name>1351 Hornby St</name><visibility>1</visibility><ExtendedData><SchemaData schemaUrl="s"><SimpleData name="address">1351 Hornby St</SimpleData><SimpleData name="school_category">Independent School</SimpleData><SimpleData name="school_name">Anchor Point Montessori</SimpleData><SimpleData name="geo_local_area">Downtown</SimpleData></SchemaData></ExtendedData><Point><coordinates>-123.130919,49.277062</coordinates></Point></Placemark><Placemark><name>5025 Willow St</name><visibility>1</visibility><ExtendedData><SchemaData schemaUrl="s"><SimpleData name="address">5025 Willow St</SimpleData><SimpleData name="school_category">Public School</SimpleData><SimpleData name="school_name">BCCH Eating Disorders School Program</SimpleData><SimpleData name="geo_local_area">South Cambie</SimpleData></SchemaData></ExtendedData><Point><coordinates>-123.125791,49.239631</coordinates></Point></Placemark><Placemark><name>3020 Heather St</name><visibility>1</visibility><ExtendedData><SchemaData schemaUrl="s"><SimpleData name="address">3020 Heather St</SimpleData><SimpleData name="school_category">Independent School</SimpleData><SimpleData name="school_name">Blessed Sacrament School</SimpleData><SimpleData name="geo_local_area">Fairview</SimpleData></SchemaData></ExtendedData><Point><coordinates>-123.119391,49.258338</coordinates></Point></Placemark><Placemark><name>1110 Cotton Drive</name><visibility>1</visibility><ExtendedData><SchemaData schemaUrl="s"><SimpleData name="address">1110 Cotton Drive</SimpleData><SimpleData name="school_category">Public School</SimpleData><SimpleData name="school_name">Britannia Community Elementary</SimpleData><SimpleData name="geo_local_area">Grandview-Woodland</SimpleData></SchemaData></ExtendedData><Point><coordinates>-123.071379,49.274512</coordinates></Point></Placemark><Placemark><name>1788 W Broadway</name><visibility>1</visibility><ExtendedData><SchemaData schemaUrl="s"><SimpleData name="address">1788 W Broadway</SimpleData><SimpleData name="school_category">Independent School</SimpleData><SimpleData name="school_name">Century High School</SimpleData><SimpleData name="geo_local_area">Fairview</SimpleData></SchemaData></ExtendedData><Point><coordinates>-123.145314,49.263385</coordinates></Point></Placemark><Placemark><name>7835 Champlain Crescent</name><visibility>1</visibility><ExtendedData><SchemaData schemaUrl="s"><SimpleData name="address">7835 Champlain Crescent</SimpleData><SimpleData name="school_category">Public School</SimpleData><SimpleData name="school_name">Champlain Heights Annex</SimpleData><SimpleData name="geo_local_area">Killarney</SimpleData></SchemaData></ExtendedData><Point><coordinates>-123.030550,49.214078</coordinates></Point></Placemark><Placemark><name>7835 Champlain Crescent</name><visibility>1</visibility><ExtendedData><SchemaData schemaUrl="s"><SimpleData name="address">7835 Champlain Crescent</SimpleData><SimpleData name="school_category">StrongStart BC</SimpleData><SimpleData name="school_name">Champlain Heights Annex StrongStart Cntr</SimpleData><SimpleData name="geo_local_area">Killarney</SimpleData></SchemaData></ExtendedData><Point><coordinates>-123.030550,49.214078</coordinates></Point></Placemark><Placemark><name>3877 Glen Drive</name><visibility>1</visibility><ExtendedData><SchemaData schemaUrl="s"><SimpleData name="address">3877 Glen Drive</SimpleData><SimpleData name="school_category">Public School</SimpleData><SimpleData name="school_name">Charles Dickens Annex</SimpleData><SimpleData name="geo_local_area">Kensington-Cedar Cottage</SimpleData></SchemaData></ExtendedData><Point><coordinates>-123.082710,49.250213</coordinates></Point></Placemark><Placemark><name>2882 E 4th Av</name><visibility>1</visibility><ExtendedData><SchemaData schemaUrl="s"><SimpleData name="address">2882 E 4th Av</SimpleData><SimpleData name="school_category">Public School</SimpleData><SimpleData name="school_name">Chief Maquinna Annex</SimpleData><SimpleData name="geo_local_area">Hastings-Sunrise</SimpleData></SchemaData></ExtendedData><Point><coordinates>-123.045118,49.266422</coordinates></Point></Placemark><Placemark><name>3200 W 41st Av</name><visibility>1</visibility><ExtendedData><SchemaData schemaUrl="s"><SimpleData name="address">3200 W 41st Av</SimpleData><SimpleData name="school_category">Independent School</SimpleData><SimpleData name="school_name">Crofton House</SimpleData><SimpleData name="geo_local_area">Kerrisdale</SimpleData></SchemaData></ExtendedData><Point><coordinates>-123.177218,49.233678</coordinates></Point></Placemark><Placemark><name>55 Expo Blvd</name><visibility>1</visibility><ExtendedData><SchemaData schemaUrl="s"><SimpleData name="address">55 Expo Blvd</SimpleData><SimpleData name="school_category">Public School</SimpleData><SimpleData name="school_name">Crosstown Elementary</SimpleData><SimpleData name="geo_local_area">Downtown</SimpleData></SchemaData></ExtendedData><Point><coordinates>-123.106594,49.278631</coordinates></Point></Placemark><Placemark><name>315 E 23rd Av</name><visibility>1</visibility><ExtendedData><SchemaData schemaUrl="s"><SimpleData name="address">315 E 23rd Av</SimpleData><SimpleData name="school_category">Public School</SimpleData><SimpleData name="school_name">David Livingstone Elementary</SimpleData><SimpleData name="geo_local_area">Riley Park</SimpleData></SchemaData></ExtendedData><Point><coordinates>-123.097981,49.250753</coordinates></Point></Placemark><Placemark><name>2900 E 44th Av</name><visibility>1</visibility><ExtendedData><SchemaData schemaUrl="s"><SimpleData name="address">2900 E 44th Av</SimpleData><SimpleData name="school_category">Public School</SimpleData><SimpleData name="school_name">Dr George M Weir Elementary</SimpleData><SimpleData name="geo_local_area">Killarney</SimpleData></SchemaData></ExtendedData><Point><coordinates>-123.044403,49.229579</coordinates></Point></Placemark><Placemark><name>6100 Battison St</name><visibility>1</visibility><ExtendedData><SchemaData schemaUrl="s"><SimpleData name="address">6100 Battison St</SimpleData><SimpleData name="school_category">Public School</SimpleData><SimpleData name="school_name">Dr H N MacCorkindale Elementary</SimpleData><SimpleData name="geo_local_area">Killarney</SimpleData></SchemaData></ExtendedData><Point><coordinates>-123.029355,49.227990</coordinates></Point></Placemark><Placemark><name>500 W 20th Av</name><visibility>1</visibility><ExtendedData><SchemaData schemaUrl="s"><SimpleData name="address">500 W 20th Av</SimpleData><SimpleData name="school_category">Public School</SimpleData><SimpleData name="school_name">Edith Cavell Elementary</SimpleData><SimpleData name="geo_local_area">South Cambie</SimpleData></SchemaData></ExtendedData><Point><coordinates>-123.117229,49.252907</coordinates></Point></Placemark><Placemark><name>2740 Guelph St</name><visibility>1</visibility><ExtendedData><SchemaData schemaUrl="s"><SimpleData name="address">2740 Guelph St</SimpleData><SimpleData name="school_category">Public School</SimpleData><SimpleData name="school_name">Florence Nightingale Elementary</SimpleData><SimpleData name="geo_local_area">Mount Pleasant</SimpleData></SchemaData></ExtendedData><Point><coordinates>-123.093718,49.260059</coordinates></Point></Placemark><Placemark><name>5025 Willow St</name><visibility>1</visibility><ExtendedData><SchemaData schemaUrl="s"><SimpleData name="address">5025 Willow St</SimpleData><SimpleData name="school_category">Public School</SimpleData><SimpleData name="school_name">G F Strong School Program</SimpleData><SimpleData name="geo_local_area">South Cambie</SimpleData></SchemaData></ExtendedData><Point><coordinates>-123.125791,49.239631</coordinates></Point></Placemark><Placemark><name>4860 Main St</name><visibility>1</visibility><ExtendedData><SchemaData schemaUrl="s"><SimpleData name="address">4860 Main St</SimpleData><SimpleData name="school_category">Public School</SimpleData><SimpleData name="school_name">General Brock Elementary</SimpleData><SimpleData name="geo_local_area">Riley Park</SimpleData></SchemaData></ExtendedData><Point><coordinates>-123.100631,49.241215</coordinates></Point></Placemark><Placemark><name>4251 Ontario St</name><visibility>1</visibility><ExtendedData><SchemaData schemaUrl="s"><SimpleData name="address">4251 Ontario St</SimpleData><SimpleData name="school_category">Public School</SimpleData><SimpleData name="school_name">General Wolfe Elementary</SimpleData><SimpleData name="geo_local_area">Riley Park</SimpleData></SchemaData></ExtendedData><Point><coordinates>-123.105965,49.247229</coordinates></Point></Placemark><Placemark><name>2055 Woodland Dr</name><visibility>1</visibility><ExtendedData><SchemaData schemaUrl="s"><SimpleData name="address">2055 Woodland Dr</SimpleData><SimpleData name="school_category">Public School</SimpleData><SimpleData name="school_name">Grandview Elementary</SimpleData><SimpleData name="geo_local_area">Grandview-Woodland</SimpleData></SchemaData></ExtendedData><Point><coordinates>-123.074370,49.266193</coordinates></Point></Placemark><Placemark><name>2625 Franklin St</name><visibility>1</visibility><ExtendedData><SchemaData schemaUrl="s"><SimpleData name="address">2625 Franklin St</SimpleData><SimpleData name="school_category">Public School</SimpleData><SimpleData name="school_name">Hastings Community Elementary</SimpleData><SimpleData name="geo_local_area">Hastings-Sunrise</SimpleData></SchemaData></ExtendedData><Point><coordinates>-123.050577,49.282611</coordinates></Point></Placemark><Placemark><name>2490 W 37th Av</name><visibility>1</visibility><ExtendedData><SchemaData schemaUrl="s"><SimpleData name="address">2490 W 37th Av</SimpleData><SimpleData name="school_category">Independent School</SimpleData><SimpleData name="school_name">Ivy Montessori School</SimpleData><SimpleData name="geo_local_area">Arbutus-Ridge</SimpleData></SchemaData></ExtendedData><Point><coordinates>-123.162098,49.238115</coordinates></Point></Placemark><Placemark><name>801 E 54th Av</name><visibility>1</visibility><ExtendedData><SchemaData schemaUrl="s"><SimpleData name="address">801 E 54th Av</SimpleData><SimpleData name="school_category">Public School</SimpleData><SimpleData name="school_name">John Henderson Annex</SimpleData><SimpleData name="geo_local_area">Sunset</SimpleData></SchemaData></ExtendedData><Point><coordinates>-123.088043,49.221042</coordinates></Point></Placemark><Placemark><name>5555 Carnarvon St</name><visibility>1</visibility><ExtendedData><SchemaData schemaUrl="s"><SimpleData name="address">5555 Carnarvon St</SimpleData><SimpleData name="school_category">Public School</SimpleData><SimpleData name="school_name">Kerrisdale Elementary</SimpleData><SimpleData name="geo_local_area">Dunbar-Southlands</SimpleData></SchemaData></ExtendedData><Point><coordinates>-123.173459,49.236168</coordinates></Point></Placemark><Placemark><name>6454 Killarney St</name><visibility>1</visibility><ExtendedData><SchemaData schemaUrl="s"><SimpleData name="address">6454 Killarney St</SimpleData><SimpleData name="school_category">Public School</SimpleData><SimpleData name="school_name">Killarney Secondary</SimpleData><SimpleData name="geo_local_area">Killarney</SimpleData></SchemaData></ExtendedData><Point><coordinates>-123.044157,49.225300</coordinates></Point></Placemark><Placemark><name>2500 Lakewood Drive</name><visibility>1</visibility><ExtendedData><SchemaData schemaUrl="s"><SimpleData name="address">2500 Lakewood Drive</SimpleData><SimpleData name="school_category">Public School</SimpleData><SimpleData name="school_name">Laura Secord Elementary</SimpleData><SimpleData name="geo_local_area">Kensington-Cedar Cottage</SimpleData></SchemaData></ExtendedData><Point><coordinates>-123.060223,49.261736</coordinates></Point></Placemark><Placemark><name>1100 Bidwell St</name><visibility>1</visibility><ExtendedData><SchemaData schemaUrl="s"><SimpleData name="address">1100 Bidwell St</SimpleData><SimpleData name="school_category">Public School</SimpleData><SimpleData name="school_name">Lord Roberts Elementary</SimpleData><SimpleData name="geo_local_area">West End</SimpleData></SchemaData></ExtendedData><Point><coordinates>-123.137845,49.286785</coordinates></Point></Placemark><Placemark><name>1750 E 22nd Av</name><visibility>1</visibility><ExtendedData><SchemaData schemaUrl="s"><SimpleData name="address">1750 E 22nd Av</SimpleData><SimpleData name="school_category">Public School</SimpleData><SimpleData name="school_name">Lord Selkirk Elementary</SimpleData><SimpleData name="geo_local_area">Kensington-Cedar Cottage</SimpleData></SchemaData></ExtendedData><Point><coordinates>-123.069007,49.249692</coordinates></Point></Placemark><Placemark><name>592 E Pender St</name><visibility>1</visibility><ExtendedData><SchemaData schemaUrl="s"><SimpleData name="address">592 E Pender St</SimpleData><SimpleData name="school_category">Public School</SimpleData><SimpleData name="school_name">Lord Strathcona Community Elementary</SimpleData><SimpleData name="geo_local_area">Strathcona</SimpleData></SchemaData></ExtendedData><Point><coordinates>-123.091477,49.279812</coordinates></Point></Placemark><Placemark><name>1936 W 10th Av</name><visibility>1</visibility><ExtendedData><SchemaData schemaUrl="s"><SimpleData name="address">1936 W 10th Av</SimpleData><SimpleData name="school_category">Public School</SimpleData><SimpleData name="school_name">Lord Tennyson Elementary</SimpleData><SimpleData name="geo_local_area">Kitsilano</SimpleData></SchemaData></ExtendedData><Point><coordinates>-123.149377,49.262519</coordinates></Point></Placemark><Placemark><name>1950 E Hastings St</name><visibility>1</visibility><ExtendedData><SchemaData schemaUrl="s"><SimpleData name="address">1950 E Hastings St</SimpleData><SimpleData name="school_category">StrongStart BC</SimpleData><SimpleData name="school_name">MacDonald StrongStart Centre</SimpleData><SimpleData name="geo_local_area">Grandview-Woodland</SimpleData></SchemaData></ExtendedData><Point><coordinates>-123.064679,49.280724</coordinates></Point></Placemark><Placemark><name>6199 Cypress St</name><visibility>1</visibility><ExtendedData><SchemaData schemaUrl="s"><SimpleData name="address">6199 Cypress St</SimpleData><SimpleData name="school_category">Public School</SimpleData><SimpleData name="school_name">Maple Grove Elementary</SimpleData><SimpleData name="geo_local_area">Kerrisdale</SimpleData></SchemaData></ExtendedData><Point><coordinates>-123.151515,49.229409</coordinates></Point></Placemark><Placemark><name>2300 Guelph St</name><visibility>1</visibility><ExtendedData><SchemaData schemaUrl="s"><SimpleData name="address">2300 Guelph St</SimpleData><SimpleData name="school_category">Public School</SimpleData><SimpleData name="school_name">Mount Pleasant Elementary</SimpleData><SimpleData name="geo_local_area">Mount Pleasant</SimpleData></SchemaData></ExtendedData><Point><coordinates>-123.094000,49.263966</coordinates></Point></Placemark><Placemark><name>4102 W 16th Av</name><visibility>1</visibility><ExtendedData><SchemaData schemaUrl="s"><SimpleData name="address">4102 W 16th Av</SimpleData><SimpleData name="school_category">Public School</SimpleData><SimpleData name="school_name">Norma Rose Point School</SimpleData><SimpleData name="geo_local_area">Dunbar-Southlands</SimpleData></SchemaData></ExtendedData><Point><coordinates>-123.201128,49.257792</coordinates></Point></Placemark><Placemark><name>5750 Oak St</name><visibility>1</visibility><ExtendedData><SchemaData schemaUrl="s"><SimpleData name="address">5750 Oak St</SimpleData><SimpleData name="school_category">Independent School</SimpleData><SimpleData name="school_name">Pacific Torah Institute</SimpleData><SimpleData name="geo_local_area">Oakridge</SimpleData></SchemaData></ExtendedData><Point><coordinates>-123.127612,49.233422</coordinates></Point></Placemark><Placemark><name>981 Nelson St</name><visibility>1</visibility><ExtendedData><SchemaData schemaUrl="s"><SimpleData name="address">981 Nelson St</SimpleData><SimpleData name="school_category">Independent School</SimpleData><SimpleData name="school_name">Pattison High School</SimpleData><SimpleData name="geo_local_area">Downtown</SimpleData></SchemaData></ExtendedData><Point><coordinates>-123.125113,49.281084</coordinates></Point></Placemark><Placemark><name>981 Nelson St</name><visibility>1</visibility><ExtendedData><SchemaData schemaUrl="s"><SimpleData name="address">981 Nelson St</SimpleData><SimpleData name="school_category">Independent School</SimpleData><SimpleData name="school_name">Pattison School</SimpleData><SimpleData name="geo_local_area">Downtown</SimpleData></SchemaData></ExtendedData><Point><coordinates>-123.125113,49.281084</coordinates></Point></Placemark><Placemark><name>5350 East Boulevard</name><visibility>1</visibility><ExtendedData><SchemaData schemaUrl="s"><SimpleData name="address">5350 East Boulevard</SimpleData><SimpleData name="school_category">Public School</SimpleData><SimpleData name="school_name">Point Grey Secondary</SimpleData><SimpleData name="geo_local_area">Shaughnessy</SimpleData></SchemaData></ExtendedData><Point><coordinates>-123.153431,49.237289</coordinates></Point></Placemark><Placemark><name>2250 Eddington Drive</name><visibility>1</visibility><ExtendedData><SchemaData schemaUrl="s"><SimpleData name="address">2250 Eddington Drive</SimpleData><SimpleData name="school_category">Public School</SimpleData><SimpleData name="school_name">Prince of Wales Secondary</SimpleData><SimpleData name="geo_local_area">Arbutus-Ridge</SimpleData></SchemaData></ExtendedData><Point><coordinates>-123.159536,49.244983</coordinates></Point></Placemark><Placemark><name>1300 E Broadway</name><visibility>1</visibility><ExtendedData><SchemaData schemaUrl="s"><SimpleData name="address">1300 E Broadway</SimpleData><SimpleData name="school_category">Public School</SimpleData><SimpleData name="school_name">Queen Alexandra Elementary</SimpleData><SimpleData name="geo_local_area">Kensington-Cedar Cottage</SimpleData></SchemaData></ExtendedData><Point><coordinates>-123.075921,49.261971</coordinates></Point></Placemark><Placemark><name>5300 Maple St</name><visibility>1</visibility><ExtendedData><SchemaData schemaUrl="s"><SimpleData name="address">5300 Maple St</SimpleData><SimpleData name="school_category">Public School</SimpleData><SimpleData name="school_name">Quilchena Elementary</SimpleData><SimpleData name="geo_local_area">Shaughnessy</SimpleData></SchemaData></ExtendedData><Point><coordinates>-123.151571,49.237246</coordinates></Point></Placemark><Placemark><name>8610 Ash St</name><visibility>1</visibility><ExtendedData><SchemaData schemaUrl="s"><SimpleData name="address">8610 Ash St</SimpleData><SimpleData name="school_category">Independent School</SimpleData><SimpleData name="school_name">Royal Canadian College</SimpleData><SimpleData name="geo_local_area">Marpole</SimpleData></SchemaData></ExtendedData><Point><coordinates>-123.118608,49.207242</coordinates></Point></Placemark><Placemark><name>100 W 15th Av</name><visibility>1</visibility><ExtendedData><SchemaData schemaUrl="s"><SimpleData name="address">100 W 15th Av</SimpleData><SimpleData name="school_category">Public School</SimpleData><SimpleData name="school_name">Simon Fraser Elementary</SimpleData><SimpleData name="geo_local_area">Mount Pleasant</SimpleData></SchemaData></ExtendedData><Point><coordinates>-123.108197,49.257171</coordinates></Point></Placemark><Placemark><name>960 E 39th Av</name><visibility>1</visibility><ExtendedData><SchemaData schemaUrl="s"><SimpleData name="address">960 E 39th Av</SimpleData><SimpleData name="school_category">StrongStart BC</SimpleData><SimpleData name="school_name">Sir Alexander Mackenzie StrongStart</SimpleData><SimpleData name="geo_local_area">Kensington-Cedar Cottage</SimpleData></SchemaData></ExtendedData><Point><coordinates>-123.086714,49.234536</coordinates></Point></Placemark><Placemark><name>6901 Elliott St</name><visibility>1</visibility><ExtendedData><SchemaData schemaUrl="s"><SimpleData name="address">6901 Elliott St</SimpleData><SimpleData name="school_category">Public School</SimpleData><SimpleData name="school_name">Sir Charles Kingsford-Smith</SimpleData><SimpleData name="geo_local_area">Victoria-Fraserview</SimpleData></SchemaData></ExtendedData><Point><coordinates>-123.055704,49.221597</coordinates></Point></Placemark><Placemark><name>7668 Borden St</name><visibility>1</visibility><ExtendedData><SchemaData schemaUrl="s"><SimpleData name="address">7668 Borden St</SimpleData><SimpleData name="school_category">Public School</SimpleData><SimpleData name="school_name">Sir James Douglas Annex</SimpleData><SimpleData name="geo_local_area">Victoria-Fraserview</SimpleData></SchemaData></ExtendedData><Point><coordinates>-123.073294,49.214830</coordinates></Point></Placemark><Placemark><name>4750 St. Catherines St</name><visibility>1</visibility><ExtendedData><SchemaData schemaUrl="s"><SimpleData name="address">4750 St. Catherines St</SimpleData><SimpleData name="school_category">Public School</SimpleData><SimpleData name="school_name">Sir Richard McBride Annex</SimpleData><SimpleData name="geo_local_area">Kensington-Cedar Cottage</SimpleData></SchemaData></ExtendedData><Point><coordinates>-123.084950,49.241944</coordinates></Point></Placemark><Placemark><name>1401 E 49th Av</name><visibility>1</visibility><ExtendedData><SchemaData schemaUrl="s"><SimpleData name="address">1401 E 49th Av</SimpleData><SimpleData name="school_category">Public School</SimpleData><SimpleData name="school_name">Sir Sandford Fleming Elementary</SimpleData><SimpleData name="geo_local_area">Victoria-Fraserview</SimpleData></SchemaData></ExtendedData><Point><coordinates>-123.076574,49.225748</coordinates></Point></Placemark><Placemark><name>3323 Wellington Av</name><visibility>1</visibility><ExtendedData><SchemaData schemaUrl="s"><SimpleData name="address">3323 Wellington Av</SimpleData><SimpleData name="school_category">Public School</SimpleData><SimpleData name="school_name">Sir Wilfred Grenfell Community</SimpleData><SimpleData name="geo_local_area">Renfrew-Collingwood</SimpleData></SchemaData></ExtendedData><Point><coordinates>-123.034807,49.242892</coordinates></Point></Placemark><Placemark><name>3323 Wellington Av</name><visibility>1</visibility><ExtendedData><SchemaData schemaUrl="s"><SimpleData name="address">3323 Wellington Av</SimpleData><SimpleData name="school_category">StrongStart BC</SimpleData><SimpleData name="school_name">Sir Wilfred Grenfell StrongStart Centre</SimpleData><SimpleData name="geo_local_area">Renfrew-Collingwood</SimpleData></SchemaData></ExtendedData><Point><coordinates>-123.034807,49.242892</coordinates></Point></Placemark><Placemark><name>7350 Laurel St</name><visibility>1</visibility><ExtendedData><SchemaData schemaUrl="s"><SimpleData name="address">7350 Laurel St</SimpleData><SimpleData name="school_category">Public School</SimpleData><SimpleData name="school_name">Sir Wilfrid Laurier Elementary</SimpleData><SimpleData name="geo_local_area">Marpole</SimpleData></SchemaData></ExtendedData><Point><coordinates>-123.125047,49.217763</coordinates></Point></Placemark><Placemark><name>428 Great Northern Way</name><visibility>1</visibility><ExtendedData><SchemaData schemaUrl="s"><SimpleData name="address">428 Great Northern Way</SimpleData><SimpleData name="school_category">Independent School</SimpleData><SimpleData name="school_name">St Francis Xavier</SimpleData><SimpleData name="geo_local_area">Mount Pleasant</SimpleData></SchemaData></ExtendedData><Point><coordinates>-123.094521,49.266462</coordinates></Point></Placemark><Placemark><name>1885 W Broadway</name><visibility>1</visibility><ExtendedData><SchemaData schemaUrl="s"><SimpleData name="address">1885 W Broadway</SimpleData><SimpleData name="school_category">Independent School</SimpleData><SimpleData name="school_name">St John's International</SimpleData><SimpleData name="geo_local_area">Kitsilano</SimpleData></SchemaData></ExtendedData><Point><coordinates>-123.147899,49.264041</coordinates></Point></Placemark><Placemark><name>3000 Commercial Drive</name><visibility>1</visibility><ExtendedData><SchemaData schemaUrl="s"><SimpleData name="address">3000 Commercial Drive</SimpleData><SimpleData name="school_category">Independent School</SimpleData><SimpleData name="school_name">Stratford Hall</SimpleData><SimpleData name="geo_local_area">Kensington-Cedar Cottage</SimpleData></SchemaData></ExtendedData><Point><coordinates>-123.069463,49.257469</coordinates></Point></Placemark><Placemark><name>1551 E 37th Av</name><visibility>1</visibility><ExtendedData><SchemaData schemaUrl="s"><SimpleData name="address">1551 E 37th Av</SimpleData><SimpleData name="school_category">Public School</SimpleData><SimpleData name="school_name">Tecumseh Annex</SimpleData><SimpleData name="geo_local_area">Kensington-Cedar Cottage</SimpleData></SchemaData></ExtendedData><Point><coordinates>-123.073099,49.237116</coordinates></Point></Placemark><Placemark><name>1850 E 41st Av</name><visibility>1</visibility><ExtendedData><SchemaData schemaUrl="s"><SimpleData name="address">1850 E 41st Av</SimpleData><SimpleData name="school_category">Public School</SimpleData><SimpleData name="school_name">Tecumseh Elementary</SimpleData><SimpleData name="geo_local_area">Victoria-Fraserview</SimpleData></SchemaData></ExtendedData><Point><coordinates>-123.068004,49.232056</coordinates></Point></Placemark><Placemark><name>788 Beatty St</name><visibility>1</visibility><ExtendedData><SchemaData schemaUrl="s"><SimpleData name="address">788 Beatty St</SimpleData><SimpleData name="school_category">Independent School</SimpleData><SimpleData name="school_name">The Westside School</SimpleData><SimpleData name="geo_local_area">Downtown</SimpleData></SchemaData></ExtendedData><Point><coordinates>-123.113444,49.277571</coordinates></Point></Placemark><Placemark><name>2325 Cassiar St</name><visibility>1</visibility><ExtendedData><SchemaData schemaUrl="s"><SimpleData name="address">2325 Cassiar St</SimpleData><SimpleData name="school_category">StrongStart BC</SimpleData><SimpleData name="school_name">Thunderbird StrongStart Centre</SimpleData><SimpleData name="geo_local_area">Hastings-Sunrise</SimpleData></SchemaData></ExtendedData><Point><coordinates>-123.031871,49.263649</coordinates></Point></Placemark><Placemark><name>2450 Cambridge St</name><visibility>1</visibility><ExtendedData><SchemaData schemaUrl="s"><SimpleData name="address">2450 Cambridge St</SimpleData><SimpleData name="school_category">StrongStart BC</SimpleData><SimpleData name="school_name">Tillicum Annex StrongStart Centre</SimpleData><SimpleData name="geo_local_area">Hastings-Sunrise</SimpleData></SchemaData></ExtendedData><Point><coordinates>-123.055599,49.286263</coordinates></Point></Placemark><Placemark><name>2450 Cambridge St</name><visibility>1</visibility><ExtendedData><SchemaData schemaUrl="s"><SimpleData name="address">2450 Cambridge St</SimpleData><SimpleData name="school_category">Public School</SimpleData><SimpleData name="school_name">Tillicum Community Annex</SimpleData><SimpleData name="geo_local_area">Hastings-Sunrise</SimpleData></SchemaData></ExtendedData><Point><coordinates>-123.055599,49.286263</coordinates></Point></Placemark><Placemark><name>4170 Trafalgar St</name><visibility>1</visibility><ExtendedData><SchemaData schemaUrl="s"><SimpleData name="address">4170 Trafalgar St</SimpleData><SimpleData name="school_category">Public School</SimpleData><SimpleData name="school_name">Trafalgar Elementary</SimpleData><SimpleData name="geo_local_area">Arbutus-Ridge</SimpleData></SchemaData></ExtendedData><Point><coordinates>-123.164606,49.250179</coordinates></Point></Placemark><Placemark><name>1580 W Broadway</name><visibility>1</visibility><ExtendedData><SchemaData schemaUrl="s"><SimpleData name="address">1580 W Broadway</SimpleData><SimpleData name="school_category">Public School</SimpleData><SimpleData name="school_name">Vancouver Alternate</SimpleData><SimpleData name="geo_local_area">Fairview</SimpleData></SchemaData></ExtendedData><Point><coordinates>-123.140261,49.263300</coordinates></Point></Placemark><Placemark><name>530 E 41st Av</name><visibility>1</visibility><ExtendedData><SchemaData schemaUrl="s"><SimpleData name="address">530 E 41st Av</SimpleData><SimpleData name="school_category">Public School</SimpleData><SimpleData name="school_name">Vancouver Learning Network</SimpleData><SimpleData name="geo_local_area">Sunset</SimpleData></SchemaData></ExtendedData><Point><coordinates>-123.092798,49.231957</coordinates></Point></Placemark><Placemark><name>998 W 26th Av</name><visibility>1</visibility><ExtendedData><SchemaData schemaUrl="s"><SimpleData name="address">998 W 26th Av</SimpleData><SimpleData name="school_category">Independent School</SimpleData><SimpleData name="school_name">Vancouver Talmud Torah Elementary</SimpleData><SimpleData name="geo_local_area">South Cambie</SimpleData></SchemaData></ExtendedData><Point><coordinates>-123.126822,49.247580</coordinates></Point></Placemark><Placemark><name>15 N Renfrew St</name><visibility>1</visibility><ExtendedData><SchemaData schemaUrl="s"><SimpleData name="address">15 N Renfrew St</SimpleData><SimpleData name="school_category">Independent School</SimpleData><SimpleData name="school_name">West Coast Christian School</SimpleData><SimpleData name="geo_local_area">Hastings-Sunrise</SimpleData></SchemaData></ExtendedData><Point><coordinates>-123.044536,49.284984</coordinates></Point></Placemark><Placemark><name>4125 W 8th Av</name><visibility>1</visibility><ExtendedData><SchemaData schemaUrl="s"><SimpleData name="address">4125 W 8th Av</SimpleData><SimpleData name="school_category">Independent School</SimpleData><SimpleData name="school_name">West Point Grey Academy</SimpleData><SimpleData name="geo_local_area">West Point Grey</SimpleData></SchemaData></ExtendedData><Point><coordinates>-123.201507,49.267066</coordinates></Point></Placemark><Schema id="s" name="s"><SimpleField type="string" name="address"><displayName>ADDRESS</displayName></SimpleField><SimpleField type="string" name="school_category"><displayName>SCHOOL_CATEGORY</displayName></SimpleField><SimpleField type="string" name="school_name"><displayName>SCHOOL_NAME</displayName></SimpleField><SimpleField type="string" name="geo_local_area"><displayName>Geo Local Area</displayName></SimpleField></Schema></Document></kml>